{
    "SurfSpots": [
        {
            "name": "Pipeline",
            "lat": 21.6630,
            "lon": -158.0510,
            "details": "Famous spot on the North Shore of Oahu, Hawaii."
        },
        {
            "name": "Teahupoo",
            "lat": -17.8483,
            "lon": -149.2335,
            "details": "Renowned for its heavy, glassy waves off the coast of Tahiti."
        },
        {
            "name": "Mavericks",
            "lat": 37.4947,
            "lon": -122.4963,
            "details": "Big-wave hotspot off Pillar Point Harbor, CA, USA."
        },
        {
            "name": "Cloudbreak",
            "lat": -17.8766,
            "lon": 177.1803,
            "details": "A world-class left reef pass near Tavarua Island, Fiji."
        },
        {
            "name": "Uluwatu",
            "lat": -8.8296,
            "lon": 115.0876,
            "details": "Popular, consistent surf break on Bali’s Bukit Peninsula."
        },
        {
            "name": "Supertubes",
            "lat": -34.0507,
            "lon": 24.9338,
            "details": "Part of Jeffreys Bay, South Africa, known for its long walls."
        },
        {
            "name": "Snapper Rocks",
            "lat": -28.1676,
            "lon": 153.5520,
            "details": "Home of the Superbank on the Gold Coast, Australia."
        },
        {
            "name": "Hossegor",
            "lat": 43.6637,
            "lon": -1.4424,
            "details": "French Atlantic coast beach break with hollow, barreling waves."
        },
        {
            "name": "Puerto Escondido",
            "lat": 15.8558,
            "lon": -97.0613,
            "details": "Mexican Pipeline, famous beach break in Oaxaca, Mexico."
        },
        {
            "name": "Rincon",
            "lat": 34.4073,
            "lon": -119.5516,
            "details": "Classic right-hand point break in California, USA."
        },
        {
            "name": "Arugam Bay",
            "lat": 6.8433,
            "lon": 81.8268,
            "details": "Sri Lanka’s most famous break, offering mellow right-hand waves."
        },
        {
            "name": "Chicama",
            "lat": -7.6996,
            "lon": -79.4481,
            "details": "Longest left in the world, located in Northern Peru."
        },
        {
            "name": "El Salvador (Punta Roca)",
            "lat": 13.4901,
            "lon": -89.3333,
            "details": "World-class right-hand point break."
        },
        {
            "name": "Waves in Tofino",
            "lat": 49.1238,
            "lon": -125.8858,
            "details": "Popular cold-water surf in British Columbia, Canada."
        },
        {
            "name": "Trestles",
            "lat": 33.3882,
            "lon": -117.5937,
            "details": "Collection of breaks in San Clemente, CA, including Lowers."
        },
        {
            "name": "Fistral Beach",
            "lat": 50.4142,
            "lon": -5.0990,
            "details": "Famous for consistent swells in Cornwall, UK."
        },
        {
            "name": "Somo",
            "lat": 43.4641,
            "lon": -3.7335,
            "details": "A classic beach break in Cantabria, Spain."
        },
        {
            "name": "Shonan",
            "lat": 35.3000,
            "lon": 139.4833,
            "details": "Popular surf area near Kamakura, Japan."
        },
        {
            "name": "La Graviere",
            "lat": 43.6758,
            "lon": -1.4383,
            "details": "Heavy shorebreak in Hossegor, France."
        },
        {
            "name": "Muizenberg",
            "lat": -34.1053,
            "lon": 18.4698,
            "details": "Beginner-friendly break near Cape Town, South Africa."
        },
        {
            "name": "Cox’s Bazar",
            "lat": 21.4272,
            "lon": 91.9876,
            "details": "Long sandy beach in Bangladesh with growing surf scene."
        },
        {
            "name": "Kovalam Beach",
            "lat": 8.3999,
            "lon": 76.9778,
            "details": "A popular surf spot in Kerala, India."
        },
        {
            "name": "Byron Bay (The Pass)",
            "lat": -28.6448,
            "lon": 153.6020,
            "details": "Well-known right-hand point in New South Wales, Australia."
        },
        {
            "name": "Mundaka",
            "lat": 43.4087,
            "lon": -2.6930,
            "details": "Legendary left-hand river mouth in the Basque Country, Spain."
        },
        {
            "name": "Pavones",
            "lat": 8.3897,
            "lon": -83.1350,
            "details": "One of the longest lefts in Costa Rica."
        },
        {
            "name": "Santa Teresa",
            "lat": 9.6401,
            "lon": -85.1622,
            "details": "Fast and hollow beach break in Costa Rica."
        },
        {
            "name": "Playa Maderas",
            "lat": 11.2833,
            "lon": -85.9000,
            "details": "Consistent beach break near San Juan del Sur, Nicaragua."
        },
        {
            "name": "Weligama",
            "lat": 5.9739,
            "lon": 80.4279,
            "details": "Beginner-friendly waves on Sri Lanka’s southern coast."
        },
        {
            "name": "Pasta Point",
            "lat": 4.2966,
            "lon": 73.5501,
            "details": "Exclusive break in the Maldives with consistent, clean waves."
        },
        {
            "name": "San Onofre",
            "lat": 33.3812,
            "lon": -117.5683,
            "details": "Mellow, longboard-friendly break in Southern California."
        },
        {
            "name": "Waikiki",
            "lat": 21.2755,
            "lon": -157.8292,
            "details": "Historic surf beach in Honolulu, Hawaii, popular with beginners."
        },
        {
            "name": "Sultans",
            "lat": 4.3320,
            "lon": 73.5967,
            "details": "A hollow right-hander in the North Malé Atoll, Maldives."
        },
        {
            "name": "Jailbreaks",
            "lat": 4.3171,
            "lon": 73.5867,
            "details": "Fast, right-hand reef break also in the Maldives."
        },
        {
            "name": "Thunders",
            "lat": -3.0437,
            "lon": 100.3540,
            "details": "Consistent break in the Mentawai Islands, Indonesia."
        },
        {
            "name": "Punta Mita",
            "lat": 20.7736,
            "lon": -105.5313,
            "details": "Multiple breaks in Nayarit, Mexico."
        },
        {
            "name": "Salinas",
            "lat": -2.2146,
            "lon": -80.9527,
            "details": "Ecuador’s surf city known for consistent waves."
        },
        {
            "name": "Montañita",
            "lat": -1.8262,
            "lon": -80.7543,
            "details": "Vibrant surf town on Ecuador’s Santa Elena coast."
        },
        {
            "name": "Playa Negra",
            "lat": 10.1799,
            "lon": -85.7963,
            "details": "Right reef break in Guanacaste, Costa Rica."
        },
        {
            "name": "Dominical",
            "lat": 9.2525,
            "lon": -83.8594,
            "details": "Consistent beach break on Costa Rica’s Pacific coast."
        },
        {
            "name": "Playa Hermosa",
            "lat": 9.5780,
            "lon": -84.6234,
            "details": "Powerful, hollow waves near Jacó, Costa Rica."
        },
        {
            "name": "Las Flores",
            "lat": 13.2042,
            "lon": -88.0969,
            "details": "Right point break in eastern El Salvador."
        },
        {
            "name": "Nazaré",
            "lat": 39.6030,
            "lon": -9.0718,
            "details": "Home of gigantic waves in Portugal."
        },
        {
            "name": "Peniche (Supertubos)",
            "lat": 39.3550,
            "lon": -9.3635,
            "details": "World-class beach break producing powerful tubes in Portugal."
        },
        {
            "name": "Ericeira",
            "lat": 38.9624,
            "lon": -9.4157,
            "details": "Portugal’s surfing reserve with a variety of breaks."
        },
        {
            "name": "Taghazout (Anchor Point)",
            "lat": 30.5452,
            "lon": -9.7086,
            "details": "Famous Moroccan right-hand point break."
        },
        {
            "name": "Imsouane",
            "lat": 30.8428,
            "lon": -9.8111,
            "details": "Long, mellow right-hand wave in Morocco."
        },
        {
            "name": "La Santa",
            "lat": 29.1296,
            "lon": -13.5741,
            "details": "Powerful reef break in Lanzarote, Canary Islands."
        },
        {
            "name": "El Quemao",
            "lat": 29.1272,
            "lon": -13.5695,
            "details": "Heavy slab wave across from La Santa, Canary Islands."
        },
        {
            "name": "Puerto de la Cruz",
            "lat": 28.4142,
            "lon": -16.5446,
            "details": "Popular Tenerife surf spot in the Canary Islands."
        },
        {
            "name": "Fuerteventura (Corralejo)",
            "lat": 28.7359,
            "lon": -13.8651,
            "details": "Various reef and beach breaks in the northern part of the island."
        },
        {
            "name": "Raglan (Whale Bay)",
            "lat": -37.7989,
            "lon": 174.8343,
            "details": "New Zealand’s famous left-hand point breaks."
        },
        {
            "name": "Piha Beach",
            "lat": -36.9511,
            "lon": 174.4709,
            "details": "Iconic black sand beach near Auckland, New Zealand."
        },
        {
            "name": "Shipwrecks, Nusa Lembongan",
            "lat": -8.6659,
            "lon": 115.4545,
            "details": "Popular right-hander off this small Indonesian island."
        },
        {
            "name": "Keramas",
            "lat": -8.6208,
            "lon": 115.3281,
            "details": "A rippable right-hander on Bali’s east coast."
        },
        {
            "name": "Medewi",
            "lat": -8.4034,
            "lon": 114.8916,
            "details": "Long left in West Bali, suitable for various levels."
        },
        {
            "name": "Desert Point",
            "lat": -8.7488,
            "lon": 115.8490,
            "details": "World-class left on Lombok, Indonesia."
        },
        {
            "name": "Lakey Peak",
            "lat": -8.8899,
            "lon": 118.2890,
            "details": "Hollow peak in Sumbawa, Indonesia, with lefts and rights."
        },
        {
            "name": "Padang Padang",
            "lat": -8.8182,
            "lon": 115.1036,
            "details": "Barreling left on the Bukit Peninsula, Bali."
        },
        {
            "name": "The Box",
            "lat": -33.7462,
            "lon": 115.0301,
            "details": "Heavy right slab in Margaret River region, Australia."
        },
        {
            "name": "Tombstones",
            "lat": -22.9605,
            "lon": 113.7373,
            "details": "Serious wave at Gnaraloo, Western Australia."
        },
        {
            "name": "Red Bluff",
            "lat": -23.1364,
            "lon": 113.5456,
            "details": "Powerful left in Western Australia’s Coral Coast."
        },
        {
            "name": "Noosa Heads",
            "lat": -26.3872,
            "lon": 153.0913,
            "details": "Longboard heaven with multiple right-hand points, QLD, Australia."
        },
        {
            "name": "Bells Beach",
            "lat": -38.3702,
            "lon": 144.2831,
            "details": "Historic surf location near Torquay, Victoria, Australia."
        },
        {
            "name": "Winki Pop",
            "lat": -38.3690,
            "lon": 144.2841,
            "details": "Fast right-hander next to Bells Beach, Australia."
        },
        {
            "name": "Johanna Beach",
            "lat": -38.7619,
            "lon": 143.4352,
            "details": "Backup site for the Rip Curl Pro, Great Ocean Road, Australia."
        },
        {
            "name": "Crescent Head",
            "lat": -31.1891,
            "lon": 152.9866,
            "details": "Classic right point in New South Wales, Australia."
        },
        {
            "name": "Manly Beach",
            "lat": -33.7963,
            "lon": 151.2874,
            "details": "Sydney’s iconic surfing beach."
        },
        {
            "name": "Bondi Beach",
            "lat": -33.8915,
            "lon": 151.2767,
            "details": "World-famous Australian beach with a vibrant surf culture."
        },
        {
            "name": "Merewether Beach",
            "lat": -32.9463,
            "lon": 151.7583,
            "details": "Newcastle’s surfing hotspot, birthplace of Mark Richards."
        },
        {
            "name": "Kirra",
            "lat": -28.1652,
            "lon": 153.5320,
            "details": "World-class right-hand sand bottom point in Queensland, Australia."
        },
        {
            "name": "Arpoador",
            "lat": -22.9867,
            "lon": -43.2003,
            "details": "Famous spot in Rio de Janeiro, Brazil."
        },
        {
            "name": "Florianópolis (Praia Mole)",
            "lat": -27.5935,
            "lon": -48.4592,
            "details": "Popular beach break in Santa Catarina, Brazil."
        },
        {
            "name": "Fernando de Noronha",
            "lat": -3.8554,
            "lon": -32.4233,
            "details": "Remote archipelago in Brazil with powerful waves."
        },
        {
            "name": "Mar del Plata",
            "lat": -38.0055,
            "lon": -57.5426,
            "details": "Argentina’s surf city on the Atlantic coast."
        },
        {
            "name": "Pichilemu (Punta de Lobos)",
            "lat": -34.4004,
            "lon": -72.0244,
            "details": "Big left-hand point break in Chile."
        },
        {
            "name": "El Gringo (Arica)",
            "lat": -18.4765,
            "lon": -70.3150,
            "details": "Heavy wave in northern Chile, known as the 'Chilean Pipeline'."
        },
        {
            "name": "La Pampilla",
            "lat": -12.1204,
            "lon": -77.0501,
            "details": "Urban beach break near Lima, Peru."
        },
        {
            "name": "Balian",
            "lat": -8.5146,
            "lon": 114.9997,
            "details": "Fun left and right beach break in West Bali."
        },
        {
            "name": "Greenmount",
            "lat": -28.1683,
            "lon": 153.5451,
            "details": "Part of the Superbank on the Gold Coast, Australia."
        },
        {
            "name": "Duranbah (D-bah)",
            "lat": -28.1672,
            "lon": 153.5444,
            "details": "Punchy beach break straddling QLD/NSW border, Australia."
        },
        {
            "name": "Ballito (Willard Beach)",
            "lat": -29.5472,
            "lon": 31.2173,
            "details": "Competition-grade break in KwaZulu-Natal, South Africa."
        },
        {
            "name": "Hoddevik",
            "lat": 62.1420,
            "lon": 5.2572,
            "details": "Scenic fjord surf in Norway, cold-water experience."
        },
        {
            "name": "Sommarøy",
            "lat": 69.6389,
            "lon": 18.0267,
            "details": "Arctic surf spot in northern Norway near Tromsø."
        },
        {
            "name": "Reykjavik (Nauthólsvík)",
            "lat": 64.1271,
            "lon": -21.9246,
            "details": "Iceland’s occasional surf scene in cold waters."
        },
        {
            "name": "Thurso East",
            "lat": 58.6125,
            "lon": -3.5170,
            "details": "Scotland’s best-known cold-water reef break."
        },
        {
            "name": "Bundoran",
            "lat": 54.4776,
            "lon": -8.2755,
            "details": "Ireland’s surf capital with multiple reef breaks."
        },
        {
            "name": "Portrush (East Strand)",
            "lat": 55.2046,
            "lon": -6.6476,
            "details": "Popular surf town in Northern Ireland."
        },
        {
            "name": "Tynemouth (Longsands)",
            "lat": 55.0179,
            "lon": -1.4177,
            "details": "Consistent beach break near Newcastle, England."
        },
        {
            "name": "Bournemouth Pier",
            "lat": 50.7166,
            "lon": -1.8754,
            "details": "South coast beach break in Dorset, England."
        },
        {
            "name": "Lacanau",
            "lat": 44.9813,
            "lon": -1.2005,
            "details": "Classic French beach break near Bordeaux."
        },
        {
            "name": "Sopelana",
            "lat": 43.4058,
            "lon": -2.9978,
            "details": "Accessible surf spot near Bilbao, Spain."
        },
        {
            "name": "Zurriola Beach",
            "lat": 43.3248,
            "lon": -1.9762,
            "details": "Urban surf beach in San Sebastián, Spain."
        },
        {
            "name": "Capbreton (La Piste)",
            "lat": 43.6368,
            "lon": -1.4360,
            "details": "Heavy beach break near Hossegor, France."
        },
        {
            "name": "Scheveningen",
            "lat": 52.1097,
            "lon": 4.2737,
            "details": "Popular North Sea surf in The Hague, Netherlands."
        },
        {
            "name": "Watergate Bay",
            "lat": 50.4452,
            "lon": -5.0481,
            "details": "Expansive surf beach near Newquay, England."
        },
        {
            "name": "Bantham",
            "lat": 50.2831,
            "lon": -3.8731,
            "details": "Sheltered estuary break in South Devon, England."
        },
        {
            "name": "La Jolla Shores",
            "lat": 32.8628,
            "lon": -117.2550,
            "details": "Popular San Diego surf spot for all levels, California."
        },
        {
            "name": "Huntington Beach Pier",
            "lat": 33.6540,
            "lon": -118.0009,
            "details": "Surf City USA, known for consistent beach breaks."
        },
        {
            "name": "Steamer Lane",
            "lat": 36.9515,
            "lon": -122.0280,
            "details": "Iconic right-hand point/reef in Santa Cruz, California."
        },
        {
            "name": "Rockaway Beach",
            "lat": 40.5867,
            "lon": -73.7963,
            "details": "NYC’s accessible surf spot in Queens, New York."
        },
        {
            "name": "Cocoa Beach",
            "lat": 28.3200,
            "lon": -80.6076,
            "details": "Birthplace of Kelly Slater, Florida’s surf hub."
        },
        {
            "name": "New Smyrna Beach",
            "lat": 29.0267,
            "lon": -80.9017,
            "details": "Consistent break, also known for shark encounters, Florida."
        },
        {
            "name": "Folly Beach",
            "lat": 32.6550,
            "lon": -79.9406,
            "details": "Popular East Coast break near Charleston, South Carolina."
        },
        {
            "name": "Cape Hatteras",
            "lat": 35.2605,
            "lon": -75.5250,
            "details": "Outer Banks, NC, known as 'The Graveyard of the Atlantic'."
        },
        {
            "name": "Sebastian Inlet",
            "lat": 27.8586,
            "lon": -80.4478,
            "details": "Florida’s consistent wave machine on the East Coast."
        },
        {
            "name": "Narragansett Town Beach",
            "lat": 41.4325,
            "lon": -71.4500,
            "details": "Rhode Island’s popular surf beach."
        },
        {
            "name": "Montauk",
            "lat": 41.0359,
            "lon": -71.9545,
            "details": "Eastern tip of Long Island with beach and reef breaks."
        },
        {
            "name": "St. Augustine Beach",
            "lat": 29.8579,
            "lon": -81.2656,
            "details": "Fun breaks in Northeast Florida."
        },
        {
            "name": "China Walls",
            "lat": 21.2674,
            "lon": -157.7134,
            "details": "Oahu spot more known for cliff jumps, but occasional surf."
        },
        {
            "name": "Honolua Bay",
            "lat": 21.0167,
            "lon": -156.6372,
            "details": "Classic right-hand point on Maui, Hawaii."
        },
        {
            "name": "Crane Beach",
            "lat": 13.1039,
            "lon": -59.4438,
            "details": "Beautiful spot in Barbados with consistent surf."
        },
        {
            "name": "Soup Bowl",
            "lat": 13.2105,
            "lon": -59.5236,
            "details": "Barbados’ premier wave, a right reef break in Bathsheba."
        },
        {
            "name": "Rincón, Puerto Rico",
            "lat": 18.3402,
            "lon": -67.2512,
            "details": "Caribbean surf mecca with multiple breaks."
        },
        {
            "name": "La Ocho",
            "lat": 18.4746,
            "lon": -66.1132,
            "details": "San Juan reef break in Puerto Rico."
        },
        {
            "name": "Jobos Beach",
            "lat": 18.5121,
            "lon": -67.0526,
            "details": "One of Isabela’s favorite surfing beaches, Puerto Rico."
        },
        {
            "name": "Tortuga Bay",
            "lat": 0.7438,
            "lon": -90.3055,
            "details": "Galápagos Islands break, requires boat access."
        },
        {
            "name": "San Cristóbal (Tongo Reef)",
            "lat": -0.9022,
            "lon": -89.6190,
            "details": "Galápagos wave, consistent but remote."
        },
        {
            "name": "Manu Bay",
            "lat": -37.8132,
            "lon": 174.7853,
            "details": "Raglan area break, known for very long rides, New Zealand."
        },
        {
            "name": "Waves in Haifa",
            "lat": 32.8225,
            "lon": 34.9885,
            "details": "Israel’s largest city break, region’s surf culture hub."
        },
        {
            "name": "Jaffa Beach",
            "lat": 32.0461,
            "lon": 34.7374,
            "details": "Tel Aviv’s surf spot near the ancient port of Jaffa."
        },
        {
            "name": "Vanimo",
            "lat": -2.6745,
            "lon": 141.3050,
            "details": "Remote surfing in Papua New Guinea."
        },
        {
            "name": "Alegria, Siargao",
            "lat": 9.7995,
            "lon": 126.1310,
            "details": "Less-crowded break on the surfing capital of the Philippines."
        },
        {
            "name": "Cloud 9",
            "lat": 9.7994,
            "lon": 126.1615,
            "details": "World-famous right-hand barreling reef break on Siargao Island."
        },
        {
            "name": "General Luna (GL) Beach",
            "lat": 9.7647,
            "lon": 126.1514,
            "details": "Multiple waves in Siargao’s prime surf zone."
        },
        {
            "name": "Baler (Cemento Beach)",
            "lat": 15.7573,
            "lon": 121.5713,
            "details": "Historic surf spot in Aurora Province, Philippines."
        },
        {
            "name": "Secret Spot, Maine",
            "lat": 43.8000,
            "lon": -69.5000,
            "details": "Cold-water surf on the U.S. Northeast coast."
        },
        {
            "name": "La Ticla",
            "lat": 18.2754,
            "lon": -103.4136,
            "details": "A remote left point in Michoacán, Mexico."
        },
        {
            "name": "Punta Mango",
            "lat": 13.1924,
            "lon": -88.0930,
            "details": "Heavy right-hand point in eastern El Salvador."
        },
        {
            "name": "Bocana, El Tunco",
            "lat": 13.4886,
            "lon": -89.3290,
            "details": "Short, hollow wave at popular El Salvador surf town."
        },
        {
            "name": "Macaronis",
            "lat": -2.9382,
            "lon": 99.8609,
            "details": "Mentawai reef break known for machine-like perfection."
        }
    ]
}